[
  {
    "id": "koramangala",
    "city_id": "bengaluru",
    "name": "Koramangala",
    "state": "Karnataka",
    "city_tier": "T1",
    "tier": "T1",
    "pin": "560034",
    "risk_class": "medium",
    "lat": 12.9352,
    "lng": 77.6245,
    "avg_lunch_earnings": 420,
    "avg_dinner_earnings": 680
  },
  {
    "id": "indiranagar",
    "city_id": "bengaluru",
    "name": "Indiranagar",
    "state": "Karnataka",
    "city_tier": "T1",
    "tier": "T1",
    "pin": "560038",
    "risk_class": "low",
    "lat": 12.9784,
    "lng": 77.6408,
    "avg_lunch_earnings": 450,
    "avg_dinner_earnings": 720
  },
  {
    "id": "hsr_layout",
    "city_id": "bengaluru",
    "name": "HSR Layout",
    "state": "Karnataka",
    "city_tier": "T1",
    "tier": "T1",
    "pin": "560102",
    "risk_class": "medium",
    "lat": 12.9116,
    "lng": 77.6474,
    "avg_lunch_earnings": 380,
    "avg_dinner_earnings": 620
  },
  {
    "id": "whitefield",
    "city_id": "bengaluru",
    "name": "Whitefield",
    "state": "Karnataka",
    "city_tier": "T1",
    "tier": "T1",
    "pin": "560066",
    "risk_class": "high",
    "lat": 12.9698,
    "lng": 77.75,
    "avg_lunch_earnings": 350,
    "avg_dinner_earnings": 580
  },
  {
    "id": "electronic_city",
    "city_id": "bengaluru",
    "name": "Electronic City",
    "state": "Karnataka",
    "city_tier": "T1",
    "tier": "T1",
    "pin": "560100",
    "risk_class": "high",
    "lat": 12.8399,
    "lng": 77.677,
    "avg_lunch_earnings": 330,
    "avg_dinner_earnings": 560
  },
  {
    "id": "pune_hinjewadi",
    "city_id": "pune",
    "name": "Hinjewadi",
    "state": "Maharashtra",
    "city_tier": "T1",
    "tier": "T1",
    "pin": "411057",
    "risk_class": "medium",
    "lat": 18.5912,
    "lng": 73.7389,
    "avg_lunch_earnings": 390,
    "avg_dinner_earnings": 640
  },
  {
    "id": "hyderabad_hitec_city",
    "city_id": "hyderabad",
    "name": "HITEC City",
    "state": "Telangana",
    "city_tier": "T1",
    "tier": "T1",
    "pin": "500081",
    "risk_class": "medium",
    "lat": 17.4483,
    "lng": 78.3915,
    "avg_lunch_earnings": 400,
    "avg_dinner_earnings": 660
  },
  {
    "id": "chennai_omr",
    "city_id": "chennai",
    "name": "OMR",
    "state": "Tamil Nadu",
    "city_tier": "T1",
    "tier": "T1",
    "pin": "600096",
    "risk_class": "medium",
    "lat": 12.9177,
    "lng": 80.2305,
    "avg_lunch_earnings": 370,
    "avg_dinner_earnings": 610
  },
  {
    "id": "jaipur_malviya_nagar",
    "city_id": "jaipur",
    "name": "Malviya Nagar",
    "state": "Rajasthan",
    "city_tier": "T2",
    "tier": "T2",
    "pin": "302017",
    "risk_class": "low",
    "lat": 26.8543,
    "lng": 75.8243,
    "avg_lunch_earnings": 310,
    "avg_dinner_earnings": 500
  },
  {
    "id": "lucknow_gomti_nagar",
    "city_id": "lucknow",
    "name": "Gomti Nagar",
    "state": "Uttar Pradesh",
    "city_tier": "T2",
    "tier": "T2",
    "pin": "226010",
    "risk_class": "medium",
    "lat": 26.8483,
    "lng": 81.0089,
    "avg_lunch_earnings": 300,
    "avg_dinner_earnings": 490
  },
  {
    "id": "indore_vijay_nagar",
    "city_id": "indore",
    "name": "Vijay Nagar",
    "state": "Madhya Pradesh",
    "city_tier": "T2",
    "tier": "T2",
    "pin": "452010",
    "risk_class": "medium",
    "lat": 22.7533,
    "lng": 75.8937,
    "avg_lunch_earnings": 295,
    "avg_dinner_earnings": 480
  },
  {
    "id": "bhubaneswar_patrapada",
    "city_id": "bhubaneswar",
    "name": "Patrapada",
    "state": "Odisha",
    "city_tier": "T3",
    "tier": "T3",
    "pin": "751019",
    "risk_class": "low",
    "lat": 20.2599,
    "lng": 85.7796,
    "avg_lunch_earnings": 260,
    "avg_dinner_earnings": 430
  }
]
